{
    "stations": [
        {
            "brandid": "",
            "stationid": "",
            "brand": "United",
            "code": "972",
            "name": "United Petroleum Umina",
            "address": "307-313 Ocean Beach Road, UMINA BEACH NSW 2257",
            "location": {
                "latitude": -33.511231,
                "longitude": 151.318092
            },
            "state": "NSW"
        },
        {
            "brandid": "",
            "stationid": "",
            "brand": "United",
            "code": "2051",
            "name": "United Petroleum Wilberforce",
            "address": "539 Wilberforce Rd, WILBERFORCE NSW 2756",
            "location": {
                "latitude": -33.56288,
                "longitude": 150.83842
            },
            "state": "NSW"
        },
        {
            "brandid": "",
            "stationid": "",
            "brand": "Ampol",
            "code": "2117",
            "name": "Toowoon Bay Service Station",
            "address": "142 Bay Rd, TOOWOON BAY NSW 2261",
            "location": {
                "latitude": -33.360126,
                "longitude": 151.497039
            },
            "state": "NSW"
        },
        {
            "brandid": "",
            "stationid": "",
            "brand": "Metro Fuel",
            "code": "2118",
            "name": "Metro Petroleum Oakflats",
            "address": "80-82 Central Ave, OAK FLATS NSW 2529",
            "location": {
                "latitude": -34.562617,
                "longitude": 150.819412
            },
            "state": "NSW"
        },
        {
            "brandid": "",
            "stationid": "",
            "brand": "Ampol Foodary",
            "code": "2122",
            "name": "Ampol Foodary Brunswick Heads R/H",
            "address": "5 Tweed St, BRUNSWICK HEADS NSW 2483",
            "location": {
                "latitude": -28.538168,
                "longitude": 153.548694
            },
            "state": "NSW"
        },
        {
            "brandid": "",
            "stationid": "",
            "brand": "Ampol Foodary",
            "code": "2125",
            "name": "Ampol Foodary Lambton",
            "address": "422 Newcastle Road, NORTH LAMBTON NSW 2299",
            "location": {
                "latitude": -32.9095591,
                "longitude": 151.7109683
            },
            "state": "NSW"
        },
        {
            "brandid": "",
            "stationid": "",
            "brand": "Ampol",
            "code": "2128",
            "name": "Ampol Nyngan",
            "address": "39 Pangee St, NYNGAN NSW 2825",
            "location": {
                "latitude": -31.560944,
                "longitude": 147.191497
            },
            "state": "NSW"
        },
        {
            "brandid": "",
            "stationid": "",
            "brand": "EG Ampol",
            "code": "2129",
            "name": "EG Ampol West Ryde",
            "address": "924 Victoria Rd, WEST RYDE NSW 2114",
            "location": {
                "latitude": -33.810887,
                "longitude": 151.093485
            },
            "state": "NSW"
        },
        {
            "brandid": "",
            "stationid": "",
            "brand": "Ampol",
            "code": "2135",
            "name": "TASCO Leeton Vance Rd",
            "address": "44-46 Vance Rd, LEETON NSW 2705",
            "location": {
                "latitude": -34.54381,
                "longitude": 146.387014
            },
            "state": "NSW"
        },
        {
            "brandid": "",
            "stationid": "",
            "brand": "Transwest Fuels",
            "code": "2136",
            "name": "Transwest Fuels",
            "address": "286 Manilla St, MANILLA NSW 2346",
            "location": {
                "latitude": -30.7397134,
                "longitude": 150.7162884
            },
            "state": "NSW"
        },
        {
            "brandid": "",
            "stationid": "",
            "brand": "Transwest Fuels",
            "code": "2137",
            "name": "Transwest Fuels",
            "address": "2 Chelmsford St, KOOTINGAL NSW 2352",
            "location": {
                "latitude": -31.0560489,
                "longitude": 151.0475884
            },
            "state": "NSW"
        },
        {
            "brandid": "",
            "stationid": "",
            "brand": "Independent",
            "code": "2141",
            "name": "Powerfuel",
            "address": "101 Blaxcell St, GRANVILLE NSW 2142",
            "location": {
                "latitude": -33.842551,
                "longitude": 151.010602
            },
            "state": "NSW"
        },
        {
            "brandid": "",
            "stationid": "",
            "brand": "BP",
            "code": "2145",
            "name": "BP Eastern Creek T/S",
            "address": "1 Wallgrove Rd, Eastern Creek NSW 2766",
            "location": {
                "latitude": -33.81127,
                "longitude": 150.84995
            },
            "state": "NSW"
        },
        {
            "brandid": "",
            "stationid": "",
            "brand": "BP",
            "code": "2153",
            "name": "BP Matraville",
            "address": "585 Bunnerong Rd, MATRAVILLE NSW 2036",
            "location": {
                "latitude": -33.963312,
                "longitude": 151.231804
            },
            "state": "NSW"
        },
        {
            "brandid": "",
            "stationid": "",
            "brand": "7-Eleven",
            "code": "2155",
            "name": "7-Eleven Thornton",
            "address": "1 Weakleys Dr, THORNTON NSW 2322",
            "location": {
                "latitude": -32.7929856,
                "longitude": 151.6374608
            },
            "state": "NSW"
        },
        {
            "brandid": "",
            "stationid": "",
            "brand": "BP",
            "code": "2159",
            "name": "Mountain Motors Walcha",
            "address": "18n Derby St, WALCHA NSW 2354",
            "location": {
                "latitude": -30.984604,
                "longitude": 151.593797
            },
            "state": "NSW"
        },
        {
            "brandid": "",
            "stationid": "",
            "brand": "Mobil",
            "code": "2184",
            "name": "South Petrol",
            "address": "48 Illawarra St, PORT KEMBLA NSW 2505",
            "location": {
                "latitude": -34.48657,
                "longitude": 150.901734
            },
            "state": "NSW"
        },
        {
            "brandid": "",
            "stationid": "",
            "brand": "Caltex",
            "code": "2193",
            "name": "CALTEX MUSWELLBROOK",
            "address": "42-50 Sydney St, MUSWELLBROOK NSW 2333",
            "location": {
                "latitude": -32.268367,
                "longitude": 150.886748
            },
            "state": "NSW"
        },
        {
            "brandid": "",
            "stationid": "",
            "brand": "Caltex",
            "code": "2194",
            "name": "Junee Tyre Service",
            "address": "Corner Cox And Main Street, JUNEE NSW 2663",
            "location": {
                "latitude": -34.867478,
                "longitude": 147.584937
            },
            "state": "NSW"
        },
        {
            "brandid": "",
            "stationid": "",
            "brand": "BP",
            "code": "2198",
            "name": "BP Berowra",
            "address": "111 Berowra Waters Rd, BEROWRA HEIGHTS NSW 2082",
            "location": {
                "latitude": -33.615454,
                "longitude": 151.141677
            },
            "state": "NSW"
        },
        {
            "brandid": "",
            "stationid": "",
            "brand": "Ampol Foodary",
            "code": "2204",
            "name": "Ampol Foodary Concord",
            "address": "87-89 Parramatta Rd, CONCORD NSW 2137",
            "location": {
                "latitude": -33.867895,
                "longitude": 151.099444
            },
            "state": "NSW"
        },
        {
            "brandid": "",
            "stationid": "",
            "brand": "Independent",
            "code": "2219",
            "name": "Bendy Kates",
            "address": "2a Francis Hollis Dr, TATHRA NSW 2550",
            "location": {
                "latitude": -36.724103,
                "longitude": 149.977408
            },
            "state": "NSW"
        },
        {
            "brandid": "",
            "stationid": "",
            "brand": "BP",
            "code": "2221",
            "name": "BP Guildford",
            "address": "257 Guildford Rd, GUILDFORD NSW 2161",
            "location": {
                "latitude": -33.85437,
                "longitude": 150.988836
            },
            "state": "NSW"
        },
        {
            "brandid": "",
            "stationid": "",
            "brand": "Shell",
            "code": "2222",
            "name": "Shell Wyong",
            "address": "140 Pacific Hwy, WYONG NSW 2259",
            "location": {
                "latitude": -33.2821101,
                "longitude": 151.4256232
            },
            "state": "NSW"
        },
        {
            "brandid": "",
            "stationid": "",
            "brand": "Metro Fuel",
            "code": "2223",
            "name": "Riverside Co",
            "address": "203 Charlotte Bay St, CHARLOTTE BAY NSW 2428",
            "location": {
                "latitude": -32.343233,
                "longitude": 152.51482
            },
            "state": "NSW"
        },
        {
            "brandid": "",
            "stationid": "",
            "brand": "Enhance",
            "code": "2224",
            "name": "Greenwell Point Service Centre",
            "address": "85 Greenwell Point Rd, GREENWELL POINT NSW 2540",
            "location": {
                "latitude": -34.907742,
                "longitude": 150.731929
            },
            "state": "NSW"
        },
        {
            "brandid": "",
            "stationid": "",
            "brand": "Ampol",
            "code": "2225",
            "name": "Ampol Bombala Depot",
            "address": "1 High Street, BOMBALA NSW 2632",
            "location": {
                "latitude": -36.903943,
                "longitude": 149.2408217
            },
            "state": "NSW"
        },
        {
            "brandid": "",
            "stationid": "",
            "brand": "Ampol",
            "code": "2226",
            "name": "Ampol Goulburn Depot",
            "address": "13 Sloane St, Goulburn NSW 2580",
            "location": {
                "latitude": -34.77423,
                "longitude": 149.70893
            },
            "state": "NSW"
        },
        {
            "brandid": "",
            "stationid": "",
            "brand": "Ampol",
            "code": "2227",
            "name": "Ampol Bega Depot",
            "address": "36 Lagoon Street, BEGA NSW 2550",
            "location": {
                "latitude": -36.6685147,
                "longitude": 149.828596
            },
            "state": "NSW"
        },
        {
            "brandid": "",
            "stationid": "",
            "brand": "Pearl Energy",
            "code": "2228",
            "name": "Pearl Energy Greta",
            "address": "122 High St, GRETA NSW 2334",
            "location": {
                "latitude": -32.675933,
                "longitude": 151.387434
            },
            "state": "NSW"
        },
        {
            "brandid": "",
            "stationid": "",
            "brand": "BP",
            "code": "2229",
            "name": "BP Tenterfield",
            "address": "69 Rouse St, TENTERFIELD NSW 2372",
            "location": {
                "latitude": -29.064999,
                "longitude": 152.016886
            },
            "state": "NSW"
        },
        {
            "brandid": "",
            "stationid": "",
            "brand": "Independent",
            "code": "2230",
            "name": "Manildra Newsagency \u0026 Roadhouse",
            "address": "2 Kiewa St, MANILDRA NSW 2865",
            "location": {
                "latitude": -33.185679,
                "longitude": 148.687391
            },
            "state": "NSW"
        },
        {
            "brandid": "",
            "stationid": "",
            "brand": "7-Eleven",
            "code": "2232",
            "name": "7-Eleven Albion Park Rail",
            "address": "47-57 Princess Highway, ALBION PARK RAIL NSW 2527",
            "location": {
                "latitude": -34.552962,
                "longitude": 150.788927
            },
            "state": "NSW"
        },
        {
            "brandid": "",
            "stationid": "",
            "brand": "Metro Fuel",
            "code": "2242",
            "name": "Metro Petroleum Chester Hill",
            "address": "172 Hector St, CHESTER HILL NSW 2162",
            "location": {
                "latitude": -33.8889,
                "longitude": 151.005411
            },
            "state": "NSW"
        },
        {
            "brandid": "",
            "stationid": "",
            "brand": "Ampol Foodary",
            "code": "2241",
            "name": "Ampol Foodary Chinderah",
            "address": "Tweed Valley Way, CHINDERAH NSW 2487",
            "location": {
                "latitude": -28.256781,
                "longitude": 153.527876
            },
            "state": "NSW"
        },
        {
            "brandid": "",
            "stationid": "",
            "brand": "BP",
            "code": "2240",
            "name": "BP Haberfield",
            "address": "95-97 Ramsay St, HABERFIELD NSW 2045",
            "location": {
                "latitude": -33.881623,
                "longitude": 151.140229
            },
            "state": "NSW"
        },
        {
            "brandid": "",
            "stationid": "",
            "brand": "Rural Fuel",
            "code": "2237",
            "name": "Rural Supplies Coolamon",
            "address": "82 Cowabbie St, COOLAMON NSW 2701",
            "location": {
                "latitude": -34.817305,
                "longitude": 147.200239
            },
            "state": "NSW"
        },
        {
            "brandid": "",
            "stationid": "",
            "brand": "Independent",
            "code": "2245",
            "name": "Willawarrin General Store and Post Office",
            "address": "44 Main St, WILLAWARRIN NSW 2440",
            "location": {
                "latitude": -30.929073,
                "longitude": 152.627128
            },
            "state": "NSW"
        },
        {
            "brandid": "",
            "stationid": "",
            "brand": "EG Ampol",
            "code": "2247",
            "name": "EG Ampol Goulburn South",
            "address": "Corner Hume Street And Ducks Lane, GOULBURN NSW 2580",
            "location": {
                "latitude": -34.771998,
                "longitude": 149.691048
            },
            "state": "NSW"
        },
        {
            "brandid": "",
            "stationid": "",
            "brand": "BP",
            "code": "2252",
            "name": "BP Silverwater",
            "address": "Cnr Silverwater Road \u0026 Derby Street, SILVERWATER NSW 2128",
            "location": {
                "latitude": -33.837648,
                "longitude": 151.046763
            },
            "state": "NSW"
        },
        {
            "brandid": "",
            "stationid": "",
            "brand": "Caltex",
            "code": "2256",
            "name": "BK Cafe and Fuel",
            "address": "70 Court St, MANILLA NSW 2346",
            "location": {
                "latitude": -30.748218,
                "longitude": 150.724537
            },
            "state": "NSW"
        },
        {
            "brandid": "",
            "stationid": "",
            "brand": "Lowes",
            "code": "2257",
            "name": "Lowes Petroleum Service",
            "address": "4 Martin St, WILCANNIA NSW 2836",
            "location": {
                "latitude": -31.562264,
                "longitude": 143.376225
            },
            "state": "NSW"
        },
        {
            "brandid": "",
            "stationid": "",
            "brand": "BP",
            "code": "2259",
            "name": "BP Rose Bay Central",
            "address": "777 New South Head Rd, ROSE BAY NSW 2029",
            "location": {
                "latitude": -33.870581,
                "longitude": 151.268579
            },
            "state": "NSW"
        },
        {
            "brandid": "",
            "stationid": "",
            "brand": "Ampol",
            "code": "2260",
            "name": "Ampol Cooma Truck Stop Polo Flat",
            "address": "2 Geebung St, POLO FLAT NSW 2630",
            "location": {
                "latitude": -36.224727,
                "longitude": 149.147857
            },
            "state": "NSW"
        },
        {
            "brandid": "",
            "stationid": "",
            "brand": "Ampol Foodary",
            "code": "2262",
            "name": "Ampol Foodary Armidale",
            "address": "142 Marsh St, ARMIDALE NSW 2350",
            "location": {
                "latitude": -30.517087,
                "longitude": 151.667591
            },
            "state": "NSW"
        },
        {
            "brandid": "",
            "stationid": "",
            "brand": "Ampol Foodary",
            "code": "2263",
            "name": "Ampol Foodary Wyoming",
            "address": "465 Pacific Hwy, WYOMING NSW 2250",
            "location": {
                "latitude": -33.409462,
                "longitude": 151.349979
            },
            "state": "NSW"
        },
        {
            "brandid": "",
            "stationid": "",
            "brand": "Independent",
            "code": "2265",
            "name": "Oasis Tuncurry",
            "address": "186 The Lakes Way, TUNCURRY NSW 2428",
            "location": {
                "latitude": -32.165452,
                "longitude": 152.493274
            },
            "state": "NSW"
        },
        {
            "brandid": "",
            "stationid": "",
            "brand": "Transwest Fuels",
            "code": "2268",
            "name": "Summers Oxley Vale Takeaway \u0026 Superette",
            "address": "171 Manilla Rd, OXLEY VALE NSW 2340",
            "location": {
                "latitude": -31.057689,
                "longitude": 150.895119
            },
            "state": "NSW"
        },
        {
            "brandid": "",
            "stationid": "",
            "brand": "BP",
            "code": "2274",
            "name": "BP Wardell",
            "address": "32 Fitzroy St, WARDELL NSW 2477",
            "location": {
                "latitude": -28.95026,
                "longitude": 153.465738
            },
            "state": "NSW"
        },
        {
            "brandid": "",
            "stationid": "",
            "brand": "BP",
            "code": "2277",
            "name": "Lawrence General \u0026 Liquor Store",
            "address": "1 Richmond St, LAWRENCE NSW 2460",
            "location": {
                "latitude": -29.499669,
                "longitude": 153.100149
            },
            "state": "NSW"
        },
        {
            "brandid": "",
            "stationid": "",
            "brand": "Independent",
            "code": "2280",
            "name": "Emmdale Roadhouse",
            "address": "15891 Barrier Highway, COBAR NSW 2835",
            "location": {
                "latitude": -31.653308,
                "longitude": 144.268416
            },
            "state": "NSW"
        },
        {
            "brandid": "",
            "stationid": "",
            "brand": "Independent",
            "code": "2282",
            "name": "Townsend General Store",
            "address": "1 Scullin St, TOWNSEND NSW 2463",
            "location": {
                "latitude": -29.463879,
                "longitude": 153.217733
            },
            "state": "NSW"
        },
        {
            "brandid": "",
            "stationid": "",
            "brand": "EG Ampol",
            "code": "2283",
            "name": "EG Ampol Bateau Bay",
            "address": "9 Bay Village Rd, BATEAU BAY NSW 2261",
            "location": {
                "latitude": -33.373145,
                "longitude": 151.473789
            },
            "state": "NSW"
        },
        {
            "brandid": "",
            "stationid": "",
            "brand": "7-Eleven",
            "code": "2286",
            "name": "7-Eleven Gateshead",
            "address": "13-15 Pacific Highway, GATESHEAD NSW 2290",
            "location": {
                "latitude": -32.987353,
                "longitude": 151.69179
            },
            "state": "NSW"
        },
        {
            "brandid": "",
            "stationid": "",
            "brand": "Ampol",
            "code": "2292",
            "name": "Ampol Mittagong",
            "address": "115 Main St, MITTAGONG NSW 2575",
            "location": {
                "latitude": -34.450278,
                "longitude": 150.445145
            },
            "state": "NSW"
        },
        {
            "brandid": "",
            "stationid": "",
            "brand": "Independent",
            "code": "2298",
            "name": "Nicholson Petroleum",
            "address": "11 Lower Rankin St, FORBES NSW 2871",
            "location": {
                "latitude": -33.382469,
                "longitude": 148.011318
            },
            "state": "NSW"
        },
        {
            "brandid": "",
            "stationid": "",
            "brand": "Liberty",
            "code": "2299",
            "name": "Casino Roadhouse",
            "address": "86 Johnston St, CASINO NSW 2470",
            "location": {
                "latitude": -28.859588,
                "longitude": 153.05626
            },
            "state": "NSW"
        },
        {
            "brandid": "",
            "stationid": "",
            "brand": "Caltex",
            "code": "2300",
            "name": "Reel (Taralga) Pty Ltd",
            "address": "58 Bunnaby St, TARALGA NSW 2580",
            "location": {
                "latitude": -34.405792,
                "longitude": 149.819043
            },
            "state": "NSW"
        },
        {
            "brandid": "",
            "stationid": "",
            "brand": "Ampol",
            "code": "2302",
            "name": "Ampol Banksmeadow Diesel Stop",
            "address": "1-3 Penrhyn Rd, BANKSMEADOW NSW 2019",
            "location": {
                "latitude": -33.963415,
                "longitude": 151.215444
            },
            "state": "NSW"
        },
        {
            "brandid": "",
            "stationid": "",
            "brand": "Ampol",
            "code": "2303",
            "name": "Ampol Dubbo North Diesel Stop",
            "address": "Lot 51 Bourke St (newell Hwy) Cnr River St, DUBBO NORTH NSW 2830",
            "location": {
                "latitude": -32.233601,
                "longitude": 148.611759
            },
            "state": "NSW"
        },
        {
            "brandid": "",
            "stationid": "",
            "brand": "Independent",
            "code": "2304",
            "name": "Access Fuels Ebor",
            "address": "1 Ebor St, EBOR NSW 2453",
            "location": {
                "latitude": -30.397839,
                "longitude": 152.352838
            },
            "state": "NSW"
        },
        {
            "brandid": "",
            "stationid": "",
            "brand": "Ampol Foodary",
            "code": "2305",
            "name": "Ampol Foodary Strathfield South",
            "address": "600 Liverpool Rd, STRATHFIELD SOUTH NSW 2136",
            "location": {
                "latitude": -33.888188,
                "longitude": 151.074621
            },
            "state": "NSW"
        },
        {
            "brandid": "",
            "stationid": "",
            "brand": "BP",
            "code": "2306",
            "name": "BP Narellan",
            "address": "271 Camden Valley Way, NARELLAN NSW 2567",
            "location": {
                "latitude": -34.041804,
                "longitude": 150.730913
            },
            "state": "NSW"
        },
        {
            "brandid": "",
            "stationid": "",
            "brand": "Metro Fuel",
            "code": "2309",
            "name": "Snowy Valley Service Centre",
            "address": "5332 Kosciuszko Rd, EAST JINDABYNE NSW 2627",
            "location": {
                "latitude": -36.394047,
                "longitude": 148.65213
            },
            "state": "NSW"
        },
        {
            "brandid": "",
            "stationid": "",
            "brand": "Ampol",
            "code": "2311",
            "name": "Ampol Port Macquarie",
            "address": "12-14 Bolwarra Rd, PORT MACQUARIE NSW 2444",
            "location": {
                "latitude": -31.450165,
                "longitude": 152.885319
            },
            "state": "NSW"
        },
        {
            "brandid": "",
            "stationid": "",
            "brand": "Ampol Foodary",
            "code": "2312",
            "name": "Ampol Foodary Cambridge Park",
            "address": "Lot 6 Star Court, CAMBRIDGE PARK NSW 2747",
            "location": {
                "latitude": -33.740603,
                "longitude": 150.71723
            },
            "state": "NSW"
        },
        {
            "brandid": "",
            "stationid": "",
            "brand": "Ampol",
            "code": "2315",
            "name": "Coombes Transport",
            "address": "28 PERRY ST, MENINDEE NSW 2879",
            "location": {
                "latitude": -32.38857726,
                "longitude": 142.4145289
            },
            "state": "NSW"
        },
        {
            "brandid": "",
            "stationid": "",
            "brand": "Independent",
            "code": "2316",
            "name": "Aberdare Petroleum",
            "address": "81 Aberdare Rd, ABERDARE NSW 2325",
            "location": {
                "latitude": -32.843701,
                "longitude": 151.374427
            },
            "state": "NSW"
        },
        {
            "brandid": "",
            "stationid": "",
            "brand": "Metro Fuel",
            "code": "2319",
            "name": "Metro Fuel Ulladulla",
            "address": "74 Princess Highway, ULLADULLA NSW 2539",
            "location": {
                "latitude": -35.350742,
                "longitude": 150.475984
            },
            "state": "NSW"
        },
        {
            "brandid": "",
            "stationid": "",
            "brand": "Ampol Foodary",
            "code": "2322",
            "name": "Ampol Foodary Werrington",
            "address": "Dunheved Road, WERRINGTON NSW 2747",
            "location": {
                "latitude": -33.745821,
                "longitude": 150.741051
            },
            "state": "NSW"
        },
        {
            "brandid": "",
            "stationid": "",
            "brand": "Shell",
            "code": "2324",
            "name": "Shell Oberon",
            "address": "1 Horace St, OBERON NSW 2787",
            "location": {
                "latitude": -33.698365,
                "longitude": 149.859187
            },
            "state": "NSW"
        },
        {
            "brandid": "",
            "stationid": "",
            "brand": "Westside",
            "code": "2325",
            "name": "Westside Petroleum Lidcombe",
            "address": "32 Joseph St, LIDCOMBE NSW 2141",
            "location": {
                "latitude": -33.864896,
                "longitude": 151.043259
            },
            "state": "NSW"
        },
        {
            "brandid": "",
            "stationid": "",
            "brand": "Independent",
            "code": "2326",
            "name": "Sussex Inlet Service Station",
            "address": "1 Jacobs Dr, SUSSEX INLET NSW 2540",
            "location": {
                "latitude": -35.158315,
                "longitude": 150.584045
            },
            "state": "NSW"
        },
        {
            "brandid": "",
            "stationid": "",
            "brand": "BP",
            "code": "2331",
            "name": "BP Penshurst",
            "address": "494 Forest Rd, PENSHURST NSW 2222",
            "location": {
                "latitude": -33.96333,
                "longitude": 151.090139
            },
            "state": "NSW"
        },
        {
            "brandid": "",
            "stationid": "",
            "brand": "Ampol Foodary",
            "code": "2336",
            "name": "Ampol Foodary Dural",
            "address": "917-923 Old Northern Rd, DURAL NSW 2158",
            "location": {
                "latitude": -33.68313,
                "longitude": 151.028749
            },
            "state": "NSW"
        },
        {
            "brandid": "",
            "stationid": "",
            "brand": "Ampol Foodary",
            "code": "2337",
            "name": "Ampol Foodary Cherrybrook",
            "address": "67 Shepherds Dr, CHERRYBROOK NSW 2126",
            "location": {
                "latitude": -33.720696,
                "longitude": 151.045165
            },
            "state": "NSW"
        },
        {
            "brandid": "",
            "stationid": "",
            "brand": "Ampol Foodary",
            "code": "2338",
            "name": "Ampol Foodary Ermington",
            "address": "560-562 Victoria Road, ERMINGTON NSW 2115",
            "location": {
                "latitude": -33.81396,
                "longitude": 151.054799
            },
            "state": "NSW"
        },
        {
            "brandid": "",
            "stationid": "",
            "brand": "Pearl Energy",
            "code": "2341",
            "name": "Pearl Energy Clarendon",
            "address": "244 Hawkesbury Valley Way, CLARENDON NSW 2756",
            "location": {
                "latitude": -33.60837,
                "longitude": 150.789218
            },
            "state": "NSW"
        },
        {
            "brandid": "",
            "stationid": "",
            "brand": "Ampol Foodary",
            "code": "2342",
            "name": "Ampol Foodary Revesby",
            "address": "181 The River Rd, REVESBY NSW 2212",
            "location": {
                "latitude": -33.955843,
                "longitude": 151.017295
            },
            "state": "NSW"
        },
        {
            "brandid": "",
            "stationid": "",
            "brand": "Independent",
            "code": "2346",
            "name": "Fuel Plus Harrington",
            "address": "85 Beach St, HARRINGTON NSW 2427",
            "location": {
                "latitude": -31.871649,
                "longitude": 152.682515
            },
            "state": "NSW"
        },
        {
            "brandid": "",
            "stationid": "",
            "brand": "Ampol Foodary",
            "code": "2347",
            "name": "Ampol Foodary Port Macquarie",
            "address": "29 Lord St, PORT MACQUARIE NSW 2444",
            "location": {
                "latitude": -31.433245,
                "longitude": 152.917056
            },
            "state": "NSW"
        },
        {
            "brandid": "",
            "stationid": "",
            "brand": "Ampol Foodary",
            "code": "2349",
            "name": "Ampol Foodary Kensington",
            "address": "211-213 Anzac Parade, KENSINGTON NSW 2033",
            "location": {
                "latitude": -33.91465,
                "longitude": 151.225163
            },
            "state": "NSW"
        },
        {
            "brandid": "",
            "stationid": "",
            "brand": "Boost Fuel",
            "code": "2350",
            "name": "BOOST FUEL BARGO",
            "address": "116-118 Railside Ave, BARGO NSW 2574",
            "location": {
                "latitude": -34.292913,
                "longitude": 150.579983
            },
            "state": "NSW"
        },
        {
            "brandid": "",
            "stationid": "",
            "brand": "Ampol Foodary",
            "code": "2356",
            "name": "Ampol Foodary Lakemba",
            "address": "516 Punchbowl Rd, LAKEMBA NSW 2195",
            "location": {
                "latitude": -33.911622,
                "longitude": 151.073203
            },
            "state": "NSW"
        },
        {
            "brandid": "",
            "stationid": "",
            "brand": "Mobil",
            "code": "2359",
            "name": "MOBIL YENDA ROADHOUSE",
            "address": "30-32 Mirrool Ave, YENDA NSW 2681",
            "location": {
                "latitude": -34.249503,
                "longitude": 146.198155
            },
            "state": "NSW"
        },
        {
            "brandid": "",
            "stationid": "",
            "brand": "United",
            "code": "2360",
            "name": "United Bulahdelah",
            "address": "9999 Pacific Hwy, BULAHDELAH NSW 2423",
            "location": {
                "latitude": -32.386103,
                "longitude": 152.228612
            },
            "state": "NSW"
        },
        {
            "brandid": "",
            "stationid": "",
            "brand": "Ampol Foodary",
            "code": "2362",
            "name": "Ampol Foodary Carlingford",
            "address": "131 Pennant Hills Rd, CARLINGFORD NSW 2118",
            "location": {
                "latitude": -33.787648,
                "longitude": 151.027913
            },
            "state": "NSW"
        },
        {
            "brandid": "",
            "stationid": "",
            "brand": "Metro Fuel",
            "code": "2363",
            "name": "Metro Tuggerah",
            "address": "150 Pacific Hwy, TUGGERAH NSW 2259",
            "location": {
                "latitude": -33.300491,
                "longitude": 151.420879
            },
            "state": "NSW"
        },
        {
            "brandid": "",
            "stationid": "",
            "brand": "Ampol Foodary",
            "code": "2364",
            "name": "Ampol Foodary Kellyville",
            "address": "3-5 Windsor Rd, KELLYVILLE NSW 2155",
            "location": {
                "latitude": -33.714327,
                "longitude": 150.960633
            },
            "state": "NSW"
        },
        {
            "brandid": "",
            "stationid": "",
            "brand": "Independent",
            "code": "2366",
            "name": "Invergowrie General Store",
            "address": "Invergowrie Store 171 Invergowrie Rd, INVERGOWRIE NSW 2350",
            "location": {
                "latitude": -30.519704,
                "longitude": 151.528389
            },
            "state": "NSW"
        },
        {
            "brandid": "",
            "stationid": "",
            "brand": "Ampol Foodary",
            "code": "2368",
            "name": "Ampol Foodary Rutherford",
            "address": "134-138 New England Highway, RUTHERFORD NSW 2320",
            "location": {
                "latitude": -32.720367,
                "longitude": 151.538027
            },
            "state": "NSW"
        },
        {
            "brandid": "",
            "stationid": "",
            "brand": "Metro Fuel",
            "code": "2372",
            "name": "Metro Warners Bay",
            "address": "1 Warners Bay Rd, WARNERS BAY NSW 2282",
            "location": {
                "latitude": -32.981744,
                "longitude": 151.646174
            },
            "state": "NSW"
        },
        {
            "brandid": "",
            "stationid": "",
            "brand": "Ampol Foodary",
            "code": "2374",
            "name": "Ampol Foodary Granville",
            "address": "144 Parramatta Rd, GRANVILLE NSW 2142",
            "location": {
                "latitude": -33.830266,
                "longitude": 151.010762
            },
            "state": "NSW"
        },
        {
            "brandid": "",
            "stationid": "",
            "brand": "Caltex",
            "code": "2376",
            "name": "Caltex Denman",
            "address": "8 Ogilvie St, DENMAN NSW 2328",
            "location": {
                "latitude": -32.389648,
                "longitude": 150.689138
            },
            "state": "NSW"
        },
        {
            "brandid": "",
            "stationid": "",
            "brand": "Ampol Foodary",
            "code": "2382",
            "name": "Ampol Foodary Belmont North",
            "address": "406 Pacific Hwy, BELMONT NORTH NSW 2280",
            "location": {
                "latitude": -33.024759,
                "longitude": 151.662385
            },
            "state": "NSW"
        },
        {
            "brandid": "",
            "stationid": "",
            "brand": "Ampol Foodary",
            "code": "2378",
            "name": "Ampol Foodary Muswellbrook",
            "address": "84-86 Maitland St, MUSWELLBROOK NSW 2333",
            "location": {
                "latitude": -32.277957,
                "longitude": 150.897954
            },
            "state": "NSW"
        },
        {
            "brandid": "",
            "stationid": "",
            "brand": "Liberty",
            "code": "2380",
            "name": "Liberty Broadwater",
            "address": "7-9 Pacific Hwy, BROADWATER NSW 2472",
            "location": {
                "latitude": -29.019977,
                "longitude": 153.423829
            },
            "state": "NSW"
        },
        {
            "brandid": "",
            "stationid": "",
            "brand": "Ampol Foodary",
            "code": "2381",
            "name": "Ampol Foodary Armidale Girraween",
            "address": "6-8 Queen Elizabeth Dr, ARMIDALE NSW 2350",
            "location": {
                "latitude": -30.503375,
                "longitude": 151.651003
            },
            "state": "NSW"
        },
        {
            "brandid": "",
            "stationid": "",
            "brand": "Ampol Foodary",
            "code": "2383",
            "name": "Ampol Foodary Kingsgrove",
            "address": "351-357 Stoney Creek, KINGSGROVE NSW 2208",
            "location": {
                "latitude": -33.951446,
                "longitude": 151.092424
            },
            "state": "NSW"
        },
        {
            "brandid": "",
            "stationid": "",
            "brand": "Ampol Foodary",
            "code": "2386",
            "name": "Ampol Foodary Charlestown",
            "address": "81 Pacific Hwy, CHARLESTOWN NSW 2290",
            "location": {
                "latitude": -32.967285,
                "longitude": 151.695368
            },
            "state": "NSW"
        },
        {
            "brandid": "",
            "stationid": "",
            "brand": "Ampol Foodary",
            "code": "2388",
            "name": "Ampol Foodary Armidale Airport",
            "address": "New England Highway, ARMIDALE NSW 2350",
            "location": {
                "latitude": -30.532214,
                "longitude": 151.615881
            },
            "state": "NSW"
        },
        {
            "brandid": "",
            "stationid": "",
            "brand": "Ampol Foodary",
            "code": "2391",
            "name": "Ampol Foodary Rosebery",
            "address": "321 Gardeners Rd, ROSEBERY NSW 2018",
            "location": {
                "latitude": -33.922956,
                "longitude": 151.205899
            },
            "state": "NSW"
        },
        {
            "brandid": "",
            "stationid": "",
            "brand": "Pearl Energy",
            "code": "2393",
            "name": "Pearl Energy Cessnock",
            "address": "102 Wollombi Rd, CESSNOCK NSW 2325",
            "location": {
                "latitude": -32.83837,
                "longitude": 151.343653
            },
            "state": "NSW"
        },
        {
            "brandid": "",
            "stationid": "",
            "brand": "BP",
            "code": "2398",
            "name": "BP Wilton",
            "address": "1109 Argyle St, WILTON NSW 2571",
            "location": {
                "latitude": -34.24056,
                "longitude": 150.699023
            },
            "state": "NSW"
        },
        {
            "brandid": "",
            "stationid": "",
            "brand": "BP",
            "code": "2399",
            "name": "BP Young Roadhouse",
            "address": "Young Roadhouse 4623 Olympic Hwy, YOUNG NSW 2594",
            "location": {
                "latitude": -34.337558,
                "longitude": 148.282473
            },
            "state": "NSW"
        },
        {
            "brandid": "",
            "stationid": "",
            "brand": "BP",
            "code": "2401",
            "name": "BP Ingleburn",
            "address": "Cnr Williamson \u0026 McDonald Road, INGLEBURN NSW 2565",
            "location": {
                "latitude": -33.988541,
                "longitude": 150.859532
            },
            "state": "NSW"
        },
        {
            "brandid": "",
            "stationid": "",
            "brand": "7-Eleven",
            "code": "2402",
            "name": "7-Eleven Revesby South",
            "address": "102 Milperra Rd, REVESBY NSW 2212",
            "location": {
                "latitude": -33.935593,
                "longitude": 151.009208
            },
            "state": "NSW"
        },
        {
            "brandid": "",
            "stationid": "",
            "brand": "Ampol Foodary",
            "code": "2403",
            "name": "Ampol Foodary Manly",
            "address": "86 Pittwater Rd, MANLY NSW 2095",
            "location": {
                "latitude": -33.793069,
                "longitude": 151.285802
            },
            "state": "NSW"
        },
        {
            "brandid": "",
            "stationid": "",
            "brand": "Ampol Foodary",
            "code": "2404",
            "name": "Ampol Foodary Brookvale",
            "address": "740-742 Pittwater Rd, BROOKVALE NSW 2100",
            "location": {
                "latitude": -33.761424,
                "longitude": 151.274598
            },
            "state": "NSW"
        },
        {
            "brandid": "",
            "stationid": "",
            "brand": "U-Go",
            "code": "2405",
            "name": "U-Go Lake Munmorah (self-serve)",
            "address": "1135 Pacific Highway, LAKE MUNMORAH NSW 2259",
            "location": {
                "latitude": -33.186409,
                "longitude": 151.552225
            },
            "state": "NSW"
        },
        {
            "brandid": "",
            "stationid": "",
            "brand": "Mobil",
            "code": "2416",
            "name": "Hillston Hardware Mobil Service Station",
            "address": "8 Grattan St, HILLSTON NSW 2675",
            "location": {
                "latitude": -33.488033,
                "longitude": 145.533114
            },
            "state": "NSW"
        },
        {
            "brandid": "",
            "stationid": "",
            "brand": "Metro Fuel",
            "code": "2417",
            "name": "Metro Tamworth",
            "address": "360 Armidale Rd, EAST TAMWORTH NSW 2340",
            "location": {
                "latitude": -31.114077,
                "longitude": 150.961366
            },
            "state": "NSW"
        },
        {
            "brandid": "",
            "stationid": "",
            "brand": "Ampol Foodary",
            "code": "2421",
            "name": "Ampol Foodary Lightning Ridge",
            "address": "Cnr Onyx St, LIGHTNING RIDGE NSW 2834",
            "location": {
                "latitude": -29.429312,
                "longitude": 147.974698
            },
            "state": "NSW"
        },
        {
            "brandid": "",
            "stationid": "",
            "brand": "Ampol Foodary",
            "code": "2422",
            "name": "Ampol Foodary Moree",
            "address": "54 Alice St, MOREE NSW 2400",
            "location": {
                "latitude": -29.471495,
                "longitude": 149.84344
            },
            "state": "NSW"
        },
        {
            "brandid": "",
            "stationid": "",
            "brand": "Liberty",
            "code": "2424",
            "name": "Mann River Caravan Park",
            "address": "4467 Gywdir Highway, JACKADGERY NSW AUSTRALIA 2460",
            "location": {
                "latitude": -29.576842,
                "longitude": 152.551544
            },
            "state": "NSW"
        },
        {
            "brandid": "",
            "stationid": "",
            "brand": "Mobil",
            "code": "2425",
            "name": "White Cliffs Outback Store Pty Ltd",
            "address": "Cnr Keraro Rd \u0026 Johnston St, WHITE CLIFFS NSW 2836",
            "location": {
                "latitude": -31.0204002,
                "longitude": 143.0403618
            },
            "state": "NSW"
        },
        {
            "brandid": "",
            "stationid": "",
            "brand": "Independent",
            "code": "2426",
            "name": "Tibooburra Food \u0026 Fuel",
            "address": "49 Briscoe St, TIBOOBURRA NSW 2880",
            "location": {
                "latitude": -29.43,
                "longitude": 142.0111
            },
            "state": "NSW"
        },
        {
            "brandid": "",
            "stationid": "",
            "brand": "Mobil",
            "code": "2427",
            "name": "Pacific Mobil",
            "address": "11 Hanlon Street, PARKES NSW 2870",
            "location": {
                "latitude": -33.154183,
                "longitude": 148.159711
            },
            "state": "NSW"
        },
        {
            "brandid": "",
            "stationid": "",
            "brand": "Costco",
            "code": "2430",
            "name": "Costco Marsden Park (Members only)",
            "address": "10 Langford Drive, MARSDEN PARK NSW 2765",
            "location": {
                "latitude": -33.722985,
                "longitude": 150.840858
            },
            "state": "NSW"
        },
        {
            "brandid": "",
            "stationid": "",
            "brand": "Liberty",
            "code": "2432",
            "name": "Guyra Fourways Service Centre",
            "address": "87-89 Bradley St, GUYRA NSW 2365",
            "location": {
                "latitude": -30.217283,
                "longitude": 151.672271
            },
            "state": "NSW"
        },
        {
            "brandid": "",
            "stationid": "",
            "brand": "Independent",
            "code": "2434",
            "name": "Packsaddle Roadhouse",
            "address": "Packsaddle Roadhouse 17242 Silver City Hwy, PACKSADDLE NSW 2880",
            "location": {
                "latitude": -30.610225,
                "longitude": 141.96671
            },
            "state": "NSW"
        },
        {
            "brandid": "",
            "stationid": "",
            "brand": "Ampol Foodary",
            "code": "2436",
            "name": "Ampol Foodary Waitara",
            "address": "59-61 Pacific Highway, WAITARA NSW 2077",
            "location": {
                "latitude": -33.710531,
                "longitude": 151.102447
            },
            "state": "NSW"
        },
        {
            "brandid": "",
            "stationid": "",
            "brand": "United",
            "code": "2439",
            "name": "United Terrey HILLS",
            "address": "43 Booralie Rd, TERREY HILLS NSW 2084",
            "location": {
                "latitude": -33.680181,
                "longitude": 151.225022
            },
            "state": "NSW"
        },
        {
            "brandid": "",
            "stationid": "",
            "brand": "Ampol Foodary",
            "code": "2440",
            "name": "Ampol Foodary Randwick",
            "address": "2 Alison Rd, RANDWICK NSW 2031",
            "location": {
                "latitude": -33.906604,
                "longitude": 151.232031
            },
            "state": "NSW"
        },
        {
            "brandid": "",
            "stationid": "",
            "brand": "Mobil",
            "code": "2441",
            "name": "Mobil Five Ways Servo Tumut",
            "address": "3 Blowering Rd, TUMUT NSW 2720",
            "location": {
                "latitude": -35.311298,
                "longitude": 148.23069
            },
            "state": "NSW"
        },
        {
            "brandid": "",
            "stationid": "",
            "brand": "Ampol Foodary",
            "code": "2442",
            "name": "Ampol Foodary Wentworthville",
            "address": "313 Great Western Hwy, SOUTH WENTWORTHVILLE NSW 2145",
            "location": {
                "latitude": -33.816223,
                "longitude": 150.971793
            },
            "state": "NSW"
        },
        {
            "brandid": "",
            "stationid": "",
            "brand": "Metro Fuel",
            "code": "2444",
            "name": "Metro Petroleum Goulburn",
            "address": "62-68 Clinton Street, GOULBURN NSW 2580",
            "location": {
                "latitude": -34.757136,
                "longitude": 149.714125
            },
            "state": "NSW"
        },
        {
            "brandid": "",
            "stationid": "",
            "brand": "BP",
            "code": "2448",
            "name": "BP Nambucca T/C",
            "address": "2 Corkwood Rd, VALLA NSW 2448",
            "location": {
                "latitude": -30.627211,
                "longitude": 152.972277
            },
            "state": "NSW"
        },
        {
            "brandid": "",
            "stationid": "",
            "brand": "Metro Fuel",
            "code": "2452",
            "name": "Metro Yagoona",
            "address": "585 Hume Hwy, YAGOONA NSW 2199",
            "location": {
                "latitude": -33.906106,
                "longitude": 151.014058
            },
            "state": "NSW"
        },
        {
            "brandid": "",
            "stationid": "",
            "brand": "United",
            "code": "2453",
            "name": "United Tenterfield",
            "address": "94 Rouse St, TENTERFIELD NSW 2372",
            "location": {
                "latitude": -29.06241,
                "longitude": 152.017206
            },
            "state": "NSW"
        },
        {
            "brandid": "",
            "stationid": "",
            "brand": "Ampol Foodary",
            "code": "2459",
            "name": "Ampol Foodary Forresters Beach",
            "address": "The Entrance, FORRESTERS BEACH NSW 2260",
            "location": {
                "latitude": -33.40061,
                "longitude": 151.468836
            },
            "state": "NSW"
        },
        {
            "brandid": "",
            "stationid": "",
            "brand": "Metro Fuel",
            "code": "2460",
            "name": "Metro Petroleum Belmore",
            "address": "442 Punchbowl Rd, BELMORE NSW 2192",
            "location": {
                "latitude": -33.907933,
                "longitude": 151.076962
            },
            "state": "NSW"
        },
        {
            "brandid": "",
            "stationid": "",
            "brand": "Metro Fuel",
            "code": "2461",
            "name": "Metro Petroleum Cootamundra",
            "address": "111 Sutton St, COOTAMUNDRA NSW 2590",
            "location": {
                "latitude": -34.644482,
                "longitude": 148.024038
            },
            "state": "NSW"
        },
        {
            "brandid": "",
            "stationid": "",
            "brand": "Metro Fuel",
            "code": "2462",
            "name": "Metro Petroleum Heatherbrae",
            "address": "206 Adelaide Street, HEATHERBRAE NSW 2324",
            "location": {
                "latitude": -32.780587,
                "longitude": 151.737605
            },
            "state": "NSW"
        },
        {
            "brandid": "",
            "stationid": "",
            "brand": "Ampol Foodary",
            "code": "2463",
            "name": "Ampol Foodary Penrith",
            "address": "2 Lugard St, PENRITH NSW 2750",
            "location": {
                "latitude": -33.734363,
                "longitude": 150.693335
            },
            "state": "NSW"
        },
        {
            "brandid": "",
            "stationid": "",
            "brand": "BP",
            "code": "2464",
            "name": "BP Termeil",
            "address": "1600 Princes Hwy, TERMEIL NSW 2539",
            "location": {
                "latitude": -35.4857525,
                "longitude": 150.3381923
            },
            "state": "NSW"
        },
        {
            "brandid": "",
            "stationid": "",
            "brand": "Ampol",
            "code": "2467",
            "name": "Ampol Tahmoor",
            "address": "2900 REMEMBRANCE DVWY, BARGO NSW 2574",
            "location": {
                "latitude": -34.24456111,
                "longitude": 150.57791184
            },
            "state": "NSW"
        },
        {
            "brandid": "",
            "stationid": "",
            "brand": "U-Go",
            "code": "2465",
            "name": "U-Go Carlingford Court (Self- serve)",
            "address": "797 Pennant Hills Road, CARLINGFORD NSW 2118",
            "location": {
                "latitude": -33.775823,
                "longitude": 151.051729
            },
            "state": "NSW"
        },
        {
            "brandid": "",
            "stationid": "",
            "brand": "Ampol",
            "code": "2471",
            "name": "Ampol Rutherford Diesel Stop",
            "address": "83 Mustang Dr, RUTHERFORD NSW 2320",
            "location": {
                "latitude": -32.704828,
                "longitude": 151.498701
            },
            "state": "NSW"
        },
        {
            "brandid": "",
            "stationid": "",
            "brand": "Ampol Foodary",
            "code": "2472",
            "name": "Ampol Foodary Tempe",
            "address": "775 Princes Hwy, TEMPE NSW 2044",
            "location": {
                "latitude": -33.925315,
                "longitude": 151.160059
            },
            "state": "NSW"
        },
        {
            "brandid": "",
            "stationid": "",
            "brand": "Mobil",
            "code": "2473",
            "name": "Mobil Muswellbrook",
            "address": "49-51 Maitland St, MUSWELLBROOK NSW 2333",
            "location": {
                "latitude": -32.2721887,
                "longitude": 150.8900116
            },
            "state": "NSW"
        },
        {
            "brandid": "",
            "stationid": "",
            "brand": "Ampol Foodary",
            "code": "2474",
            "name": "Ampol Foodary Kogarah",
            "address": "29 President Ave, KOGARAH NSW 2217",
            "location": {
                "latitude": -33.965163,
                "longitude": 151.14115
            },
            "state": "NSW"
        },
        {
            "brandid": "",
            "stationid": "",
            "brand": "Metro Fuel",
            "code": "2475",
            "name": "Metro Petroleum Bellbird",
            "address": "380 Wollombi Rd, BELLBIRD NSW 2325",
            "location": {
                "latitude": -32.8569915,
                "longitude": 151.3229142
            },
            "state": "NSW"
        },
        {
            "brandid": "",
            "stationid": "",
            "brand": "Independent",
            "code": "2477",
            "name": "Midtown Lithgow",
            "address": "325 Main St, LITHGOW NSW 2790",
            "location": {
                "latitude": -33.483569,
                "longitude": 150.140903
            },
            "state": "NSW"
        },
        {
            "brandid": "",
            "stationid": "",
            "brand": "Ampol Foodary",
            "code": "2478",
            "name": "Ampol Foodary Beacon Hill",
            "address": "176 Warringah Rd, BEACON HILL NSW 2100",
            "location": {
                "latitude": -33.753807,
                "longitude": 151.2602299
            },
            "state": "NSW"
        },
        {
            "brandid": "",
            "stationid": "",
            "brand": "Liberty",
            "code": "2480",
            "name": "Liberty Moruya",
            "address": "5 Princes Hwy, MORUYA NSW 2537",
            "location": {
                "latitude": -35.90459,
                "longitude": 150.081623
            },
            "state": "NSW"
        },
        {
            "brandid": "",
            "stationid": "",
            "brand": "Reddy Express",
            "code": "2489",
            "name": "Shell Reddy  Express North Richmond",
            "address": "75-78 Bells Line Of Road, NORTH RICHMOND NSW 2754",
            "location": {
                "latitude": -33.577734,
                "longitude": 150.718917
            },
            "state": "NSW"
        },
        {
            "brandid": "",
            "stationid": "",
            "brand": "Independent",
            "code": "2481",
            "name": "Eungai Rail Petrol \u0026 Diesel",
            "address": "8 Station St, EUNGAI RAIL NSW 2441",
            "location": {
                "latitude": -30.850821,
                "longitude": 152.9016
            },
            "state": "NSW"
        },
        {
            "brandid": "",
            "stationid": "",
            "brand": "Independent",
            "code": "2492",
            "name": "AP Punchbowl",
            "address": "Cnr Dudley St \u0026 Punchbowl Rd, PUNCHBOWL NSW 2196",
            "location": {
                "latitude": -33.923055,
                "longitude": 151.058896
            },
            "state": "NSW"
        },
        {
            "brandid": "",
            "stationid": "",
            "brand": "Speedway",
            "code": "2496",
            "name": "Speedway Mt Pritchard",
            "address": "348 Elizabeth Dr, MOUNT PRITCHARD NSW 2170",
            "location": {
                "latitude": -33.903154,
                "longitude": 150.896383
            },
            "state": "NSW"
        },
        {
            "brandid": "",
            "stationid": "",
            "brand": "Shell",
            "code": "2497",
            "name": "Shell Goonellabah",
            "address": "753 Ballina Road, GOONELLABAH NSW 2480",
            "location": {
                "latitude": -28.8133873,
                "longitude": 153.3391471
            },
            "state": "NSW"
        },
        {
            "brandid": "",
            "stationid": "",
            "brand": "Shell",
            "code": "2498",
            "name": "Shell Wollongbar",
            "address": "1185 Bruxner Hwy, WOLLONGBAR NSW 2477",
            "location": {
                "latitude": -28.815548,
                "longitude": 153.403428
            },
            "state": "NSW"
        },
        {
            "brandid": "",
            "stationid": "",
            "brand": "Shell",
            "code": "2499",
            "name": "SHELL WINGHAM SERVO",
            "address": "24 Murray Road, WINGHAM NSW 2429",
            "location": {
                "latitude": -31.8686868,
                "longitude": 152.3620177
            },
            "state": "NSW"
        },
        {
            "brandid": "",
            "stationid": "",
            "brand": "7-Eleven",
            "code": "2500",
            "name": "7-Eleven Kanwal",
            "address": "207-209 Wallarah Rd, KANWAL NSW 2259",
            "location": {
                "latitude": -33.2528645,
                "longitude": 151.4931737
            },
            "state": "NSW"
        },
        {
            "brandid": "",
            "stationid": "",
            "brand": "Independent",
            "code": "2502",
            "name": "Andys Garage Bray Park",
            "address": "46-48 Kyogle Rd, BRAY PARK NSW 2484",
            "location": {
                "latitude": -28.340999,
                "longitude": 153.374884
            },
            "state": "NSW"
        },
        {
            "brandid": "",
            "stationid": "",
            "brand": "BP",
            "code": "2503",
            "name": "BP Ulladulla",
            "address": "153 Princess Highway, ULLADULLA NSW 2539",
            "location": {
                "latitude": -35.362843,
                "longitude": 150.47273
            },
            "state": "NSW"
        },
        {
            "brandid": "",
            "stationid": "",
            "brand": "Ampol Foodary",
            "code": "2603",
            "name": "Ampol Foodary Hamilton",
            "address": "59-63 Tudor Street, HAMILTON NSW 2303",
            "location": {
                "latitude": -32.924642,
                "longitude": 151.751357
            },
            "state": "NSW"
        },
        {
            "brandid": "",
            "stationid": "",
            "brand": "U-Go",
            "code": "2605",
            "name": "U-Go Rozelle (Self - Serve)",
            "address": "121 Victoria Rd, ROZELLE NSW 2039",
            "location": {
                "latitude": -33.862552,
                "longitude": 151.168475
            },
            "state": "NSW"
        },
        {
            "brandid": "",
            "stationid": "",
            "brand": "Ampol Foodary",
            "code": "2606",
            "name": "Ampol Foodary Salt Ash",
            "address": "2893 Nelson Bay Rd, SALT ASH NSW 2318",
            "location": {
                "latitude": -32.786649,
                "longitude": 151.933639
            },
            "state": "NSW"
        },
        {
            "brandid": "",
            "stationid": "",
            "brand": "Ampol Foodary",
            "code": "2608",
            "name": "Ampol Foodary Thornleigh",
            "address": "200-202 Pennant Hills Road, THORNLEIGH NSW 2120",
            "location": {
                "latitude": -33.7266,
                "longitude": 151.08363
            },
            "state": "NSW"
        },
        {
            "brandid": "",
            "stationid": "",
            "brand": "Independent",
            "code": "2610",
            "name": "Norris Park IGA - MOGAS",
            "address": "545 Union Rd, NORTH ALBURY NSW 2640",
            "location": {
                "latitude": -36.051254,
                "longitude": 146.921149
            },
            "state": "NSW"
        },
        {
            "brandid": "",
            "stationid": "",
            "brand": "Independent",
            "code": "2611",
            "name": "Glen Artney Truck Repairs",
            "address": "55-67 Armstrong St, WESTDALE NSW 2340",
            "location": {
                "latitude": -31.075069,
                "longitude": 150.853261
            },
            "state": "NSW"
        },
        {
            "brandid": "",
            "stationid": "",
            "brand": "Liberty",
            "code": "2675",
            "name": "Bonalbo Petrol \u0026 General store",
            "address": "62 Woodenbong Rd, BONALBO NSW 2469",
            "location": {
                "latitude": -28.73812,
                "longitude": 152.629268
            },
            "state": "NSW"
        },
        {
            "brandid": "",
            "stationid": "",
            "brand": "Ampol Foodary",
            "code": "2676",
            "name": "Ampol Foodary New Lambton",
            "address": "148 Bridges Rd, NEW LAMBTON NSW 2305",
            "location": {
                "latitude": -32.932783,
                "longitude": 151.713774
            },
            "state": "NSW"
        },
        {
            "brandid": "",
            "stationid": "",
            "brand": "Shell",
            "code": "2677",
            "name": "Black Stump Service Station",
            "address": "119 Binnia St, COOLAH NSW 2843",
            "location": {
                "latitude": -31.827424,
                "longitude": 149.715638
            },
            "state": "NSW"
        },
        {
            "brandid": "",
            "stationid": "",
            "brand": "Independent",
            "code": "2678",
            "name": "Coolahs Top Service Station",
            "address": "1a Binnia St, COOLAH NSW 2843",
            "location": {
                "latitude": -31.819717,
                "longitude": 149.725151
            },
            "state": "NSW"
        },
        {
            "brandid": "",
            "stationid": "",
            "brand": "Mobil",
            "code": "2679",
            "name": "Mobil Fuel North Haven",
            "address": "Shop 1 531 Ocean Dr, NORTH HAVEN NSW 2443",
            "location": {
                "latitude": -31.642115,
                "longitude": 152.810203
            },
            "state": "NSW"
        },
        {
            "brandid": "",
            "stationid": "",
            "brand": "Caltex",
            "code": "2681",
            "name": "Caltex Cameron Park",
            "address": "119 Stenhouse Dr, CAMERON PARK NSW 2285",
            "location": {
                "latitude": -32.896448,
                "longitude": 151.597315
            },
            "state": "NSW"
        },
        {
            "brandid": "",
            "stationid": "",
            "brand": "Ampol Foodary",
            "code": "2685",
            "name": "Ampol Foodary Berowra",
            "address": "12-14 Berowra Waters Rd, BEROWRA NSW 2081",
            "location": {
                "latitude": -33.623381,
                "longitude": 151.150554
            },
            "state": "NSW"
        },
        {
            "brandid": "",
            "stationid": "",
            "brand": "Ampol Foodary",
            "code": "2687",
            "name": "Ampol Foodary North Richmond",
            "address": "50 Bells Line of Road, NORTH RICHMOND NSW 2754",
            "location": {
                "latitude": -33.579975,
                "longitude": 150.719994
            },
            "state": "NSW"
        },
        {
            "brandid": "",
            "stationid": "",
            "brand": "Powerfuel",
            "code": "2690",
            "name": "Broke Village Store",
            "address": "4 Wollombi St, BROKE NSW 2330",
            "location": {
                "latitude": -32.750563,
                "longitude": 151.103588
            },
            "state": "NSW"
        },
        {
            "brandid": "",
            "stationid": "",
            "brand": "Independent",
            "code": "2693",
            "name": "Thora Store",
            "address": "2656 Waterfall Way, THORA NSW 2454",
            "location": {
                "latitude": -30.425036,
                "longitude": 152.778738
            },
            "state": "NSW"
        },
        {
            "brandid": "",
            "stationid": "",
            "brand": "Independent",
            "code": "2694",
            "name": "Access Fuel",
            "address": "10 Pacific St, CRESCENT HEAD NSW 2440",
            "location": {
                "latitude": -31.189114,
                "longitude": 152.974344
            },
            "state": "NSW"
        },
        {
            "brandid": "",
            "stationid": "",
            "brand": "Mobil",
            "code": "2695",
            "name": "Mobil South Tamworth",
            "address": "2 Kathleen St, SOUTH TAMWORTH NSW 2340",
            "location": {
                "latitude": -31.103581,
                "longitude": 150.918599
            },
            "state": "NSW"
        },
        {
            "brandid": "",
            "stationid": "",
            "brand": "BP",
            "code": "2696",
            "name": "BP Nowra",
            "address": "Corner Princess Highway and Plunkett Street, NOWRA NSW 2541",
            "location": {
                "latitude": -34.878761,
                "longitude": 150.604307
            },
            "state": "NSW"
        },
        {
            "brandid": "",
            "stationid": "",
            "brand": "Ampol Foodary",
            "code": "2697",
            "name": "Ampol Foodary Swansea",
            "address": "126 Pacific Hwy, SWANSEA NSW 2281",
            "location": {
                "latitude": -33.088127,
                "longitude": 151.638255
            },
            "state": "NSW"
        },
        {
            "brandid": "",
            "stationid": "",
            "brand": "Reddy Express",
            "code": "2707",
            "name": "Shell Reddy  Express Queanbeyan",
            "address": "2 High Street, QUEANBEYAN EAST NSW 2620",
            "location": {
                "latitude": -35.348513,
                "longitude": 149.243517
            },
            "state": "NSW"
        },
        {
            "brandid": "",
            "stationid": "",
            "brand": "Ampol Foodary",
            "code": "2706",
            "name": "Ampol Foodary Narellan",
            "address": "NARELLAN RD CNR MAXWELL PL, NARELLAN NSW 2567",
            "location": {
                "latitude": -34.039712,
                "longitude": 150.743271
            },
            "state": "NSW"
        },
        {
            "brandid": "",
            "stationid": "",
            "brand": "Independent",
            "code": "2710",
            "name": "Metco Merimbula",
            "address": "Cnr of Arthur Kaine Drive and Dunns Lane, MERIMBULA NSW 2548",
            "location": {
                "latitude": -36.896457,
                "longitude": 149.910851
            },
            "state": "NSW"
        },
        {
            "brandid": "",
            "stationid": "",
            "brand": "BP",
            "code": "2711",
            "name": "BP Silverwater South",
            "address": "51 Egerton St, SILVERWATER NSW 2128",
            "location": {
                "latitude": -33.8363055,
                "longitude": 151.0478898
            },
            "state": "NSW"
        },
        {
            "brandid": "",
            "stationid": "",
            "brand": "Ampol Foodary",
            "code": "2713",
            "name": "Ampol Foodary Punchbowl",
            "address": "1285-1289 Canterbury Rd, PUNCHBOWL NSW 2196",
            "location": {
                "latitude": -33.9314597,
                "longitude": 151.0596341
            },
            "state": "NSW"
        },
        {
            "brandid": "",
            "stationid": "",
            "brand": "Speedway",
            "code": "2714",
            "name": "Speedway Cammeray",
            "address": "330 Miller St, CAMMERAY NSW 2062",
            "location": {
                "latitude": -33.8287134,
                "longitude": 151.2088097
            },
            "state": "NSW"
        },
        {
            "brandid": "",
            "stationid": "",
            "brand": "Pearl Energy",
            "code": "2715",
            "name": "Pearl Energy Wyong North",
            "address": "6b 1-10 Amy Close, WYONG NSW 2259",
            "location": {
                "latitude": -33.266366,
                "longitude": 151.435641
            },
            "state": "NSW"
        },
        {
            "brandid": "",
            "stationid": "",
            "brand": "Liberty",
            "code": "2716",
            "name": "Liberty Foodmart",
            "address": "54 Ballina Rd, LISMORE NSW 2480",
            "location": {
                "latitude": -28.8140206,
                "longitude": 153.2799107
            },
            "state": "NSW"
        },
        {
            "brandid": "",
            "stationid": "",
            "brand": "7-Eleven",
            "code": "2875",
            "name": "7-Eleven Marsden Park",
            "address": "861 Richmond Road, MARSDEN PARK NSW 2765",
            "location": {
                "latitude": -33.718692,
                "longitude": 150.846004
            },
            "state": "NSW"
        },
        {
            "brandid": "",
            "stationid": "",
            "brand": "Speedway",
            "code": "8282",
            "name": "Speedway South Granville",
            "address": "171 Clyde St, SOUTH GRANVILLE NSW 2142",
            "location": {
                "latitude": -33.8474647,
                "longitude": 151.0129202
            },
            "state": "NSW"
        },
        {
            "brandid": "",
            "stationid": "",
            "brand": "Ampol Foodary",
            "code": "8398",
            "name": "Ampol Foodary Murwillumbah",
            "address": "1-7 Buchanan St, SOUTH MURWILLUMBAH NSW 2484",
            "location": {
                "latitude": -28.3268979,
                "longitude": 153.4093121
            },
            "state": "NSW"
        },
        {
            "brandid": "",
            "stationid": "",
            "brand": "Ampol",
            "code": "9777",
            "name": "Boland Petroleum",
            "address": "101 Gosport St, MOREE NSW 2400",
            "location": {
                "latitude": -29.476258,
                "longitude": 149.8475
            },
            "state": "NSW"
        },
        {
            "brandid": "",
            "stationid": "",
            "brand": "Ampol",
            "code": "9792",
            "name": "Boland Petroleum",
            "address": "1-5 James St, NARRABRI NSW 2390",
            "location": {
                "latitude": -30.3296288,
                "longitude": 149.7936588
            },
            "state": "NSW"
        },
        {
            "brandid": "",
            "stationid": "",
            "brand": "Independent",
            "code": "14081",
            "name": "Independent SCONE",
            "address": "236 Kelly St, SCONE NSW 2337",
            "location": {
                "latitude": -32.0550787,
                "longitude": 150.8693514
            },
            "state": "NSW"
        },
        {
            "brandid": "",
            "stationid": "",
            "brand": "BP",
            "code": "16874",
            "name": "BP Riverstone",
            "address": "196 Riverstone Pde, RIVERSTONE NSW 2765",
            "location": {
                "latitude": -33.6648441,
                "longitude": 150.8551245
            },
            "state": "NSW"
        },
        {
            "brandid": "",
            "stationid": "",
            "brand": "Independent",
            "code": "16882",
            "name": "Tabourie Tuckerbox",
            "address": "70 Princess Highway, LAKE TABOURIE NSW 2539",
            "location": {
                "latitude": -35.434948,
                "longitude": 150.403262
            },
            "state": "NSW"
        },
        {
            "brandid": "",
            "stationid": "",
            "brand": "Independent",
            "code": "16884",
            "name": "Independent Berridale",
            "address": "68 Jindabyne Rd, BERRIDALE NSW 2628",
            "location": {
                "latitude": -36.3654151,
                "longitude": 148.8270027
            },
            "state": "NSW"
        },
        {
            "brandid": "",
            "stationid": "",
            "brand": "U-Go",
            "code": "16887",
            "name": "U-Go Taren Point",
            "address": "114 Taren Point Rd, TAREN POINT NSW 2229",
            "location": {
                "latitude": -34.0206558,
                "longitude": 151.1218918
            },
            "state": "NSW"
        },
        {
            "brandid": "",
            "stationid": "",
            "brand": "Independent",
            "code": "16888",
            "name": "Billabong Takeaway \u0026 LPO",
            "address": "5 Forbes Street, YEOVAL NSW 2868",
            "location": {
                "latitude": -32.7537301,
                "longitude": 148.6479241
            },
            "state": "NSW"
        },
        {
            "brandid": "",
            "stationid": "",
            "brand": "Ampol Foodary",
            "code": "16890",
            "name": "Ampol Foodary Gilgandra",
            "address": "6425 Newell Hwy, GILGANDRA NSW 2827",
            "location": {
                "latitude": -31.7254443,
                "longitude": 148.6527967
            },
            "state": "NSW"
        },
        {
            "brandid": "",
            "stationid": "",
            "brand": "Lowes",
            "code": "16896",
            "name": "Lowes Petroleum Service",
            "address": "13 Midkin St, GARAH NSW 2405",
            "location": {
                "latitude": -29.0739201,
                "longitude": 149.6336136
            },
            "state": "NSW"
        },
        {
            "brandid": "",
            "stationid": "",
            "brand": "Ampol Foodary",
            "code": "16898",
            "name": "Ampol Foodary Mudgee",
            "address": "114-118 Church St, MUDGEE NSW 2850",
            "location": {
                "latitude": -32.5942803,
                "longitude": 149.5876199
            },
            "state": "NSW"
        },
        {
            "brandid": "",
            "stationid": "",
            "brand": "Transwest Fuels",
            "code": "16899",
            "name": "Transwest Fuels",
            "address": "50e Fitzroy St, WALCHA NSW 2354",
            "location": {
                "latitude": -30.9860216,
                "longitude": 151.5961045
            },
            "state": "NSW"
        },
        {
            "brandid": "",
            "stationid": "",
            "brand": "Ampol",
            "code": "16900",
            "name": "TASCO Wentworth",
            "address": "17 Sandwych St, WENTWORTH NSW 2648",
            "location": {
                "latitude": -34.1067925,
                "longitude": 141.917973
            },
            "state": "NSW"
        },
        {
            "brandid": "",
            "stationid": "",
            "brand": "Enhance",
            "code": "16904",
            "name": "Enhance Lithgow",
            "address": "151 Mort St, LITHGOW NSW 2790",
            "location": {
                "latitude": -33.4809941,
                "longitude": 150.1630228
            },
            "state": "NSW"
        },
        {
            "brandid": "",
            "stationid": "",
            "brand": "Mobil",
            "code": "16905",
            "name": "Mobil Nowra",
            "address": "215 Kinghorne St, NOWRA NSW 2541",
            "location": {
                "latitude": -34.8907243,
                "longitude": 150.6012047
            },
            "state": "NSW"
        },
        {
            "brandid": "",
            "stationid": "",
            "brand": "Ampol Foodary",
            "code": "16907",
            "name": "Ampol Foodary Coogee South",
            "address": "169-173 Malabar Rd, SOUTH COOGEE NSW 2034",
            "location": {
                "latitude": -33.9323319,
                "longitude": 151.2574379
            },
            "state": "NSW"
        },
        {
            "brandid": "",
            "stationid": "",
            "brand": "Ampol Foodary",
            "code": "16908",
            "name": "Ampol Foodary Merrylands",
            "address": "150 Woodville Rd, MERRYLANDS NSW 2160",
            "location": {
                "latitude": -33.838025,
                "longitude": 150.99969
            },
            "state": "NSW"
        },
        {
            "brandid": "",
            "stationid": "",
            "brand": "Ampol Foodary",
            "code": "16909",
            "name": "Ampol Foodary Alexandria",
            "address": "133 Wyndham Street, ALEXANDRIA NSW 2015",
            "location": {
                "latitude": -33.902032,
                "longitude": 151.200054
            },
            "state": "NSW"
        },
        {
            "brandid": "",
            "stationid": "",
            "brand": "Ampol Foodary",
            "code": "16911",
            "name": "Ampol Foodary Kooringal",
            "address": "265-267 Lake Albert Rd, KOORINGAL NSW 2650",
            "location": {
                "latitude": -35.1407736,
                "longitude": 147.3755366
            },
            "state": "NSW"
        },
        {
            "brandid": "",
            "stationid": "",
            "brand": "Ampol Foodary",
            "code": "16914",
            "name": "Ampol Foodary Wagga Wagga",
            "address": "56 Docker St, WAGGA WAGGA NSW 2650",
            "location": {
                "latitude": -35.1173827,
                "longitude": 147.3558074
            },
            "state": "NSW"
        },
        {
            "brandid": "",
            "stationid": "",
            "brand": "Ampol Foodary",
            "code": "16913",
            "name": "Ampol Foodary Gumly Gumly",
            "address": "Caltex 3723 Hwy, GUMLY GUMLY NSW 2652",
            "location": {
                "latitude": -35.136094,
                "longitude": 147.442429
            },
            "state": "NSW"
        },
        {
            "brandid": "",
            "stationid": "",
            "brand": "Ampol Foodary",
            "code": "16915",
            "name": "Ampol Foodary Lansvale",
            "address": "141-151 Hume Highway Cnr Chadderton St, LANSVALE NSW 2166",
            "location": {
                "latitude": -33.894328,
                "longitude": 150.957208
            },
            "state": "NSW"
        },
        {
            "brandid": "",
            "stationid": "",
            "brand": "Ampol Foodary",
            "code": "16916",
            "name": "Ampol Foodary Cabramatta",
            "address": "166 John St, CABRAMATTA NSW 2166",
            "location": {
                "latitude": -33.8942945,
                "longitude": 150.9280257
            },
            "state": "NSW"
        },
        {
            "brandid": "",
            "stationid": "",
            "brand": "7-Eleven",
            "code": "16917",
            "name": "7- Eleven Towradgi",
            "address": "162-166 Pioneer Rd, TOWRADGI NSW 2518",
            "location": {
                "latitude": -34.3841162,
                "longitude": 150.9064844
            },
            "state": "NSW"
        },
        {
            "brandid": "",
            "stationid": "",
            "brand": "Ampol Foodary",
            "code": "16919",
            "name": "Ampol Foodary Moonbi",
            "address": "16-18 Gill St, MOONBI NSW 2353",
            "location": {
                "latitude": -31.0230276,
                "longitude": 151.0699263
            },
            "state": "NSW"
        },
        {
            "brandid": "",
            "stationid": "",
            "brand": "Ampol Foodary",
            "code": "16921",
            "name": "Ampol Foodary Tamworth Orana",
            "address": "21 White St Cnr Marius St, Tamworth NSW 2350",
            "location": {
                "latitude": -31.092552,
                "longitude": 150.9342661
            },
            "state": "NSW"
        },
        {
            "brandid": "",
            "stationid": "",
            "brand": "Budget",
            "code": "16924",
            "name": "Budget Petrol Chippendale",
            "address": "66-70 Regent Street, CHIPPENDALE NSW 2008",
            "location": {
                "latitude": -33.8878,
                "longitude": 151.2017441
            },
            "state": "NSW"
        },
        {
            "brandid": "",
            "stationid": "",
            "brand": "Ampol Foodary",
            "code": "17087",
            "name": "Ampol Foodary Port Macquarie",
            "address": "100 Hastings River Dr, PORT MACQUARIE NSW 2444",
            "location": {
                "latitude": -31.4290224,
                "longitude": 152.8820097
            },
            "state": "NSW"
        },
        {
            "brandid": "",
            "stationid": "",
            "brand": "Lowes",
            "code": "17105",
            "name": "Lowes Petroleum Service",
            "address": "1 Mclennan Street, ARMIDALE NSW 2350",
            "location": {
                "latitude": -30.511283,
                "longitude": 151.648329
            },
            "state": "NSW"
        },
        {
            "brandid": "",
            "stationid": "",
            "brand": "7-Eleven",
            "code": "17106",
            "name": "7-Eleven Karabar",
            "address": "2 Southqueen Pl, KARABAR NSW 2620",
            "location": {
                "latitude": -35.371414,
                "longitude": 149.232741
            },
            "state": "NSW"
        },
        {
            "brandid": "",
            "stationid": "",
            "brand": "BP",
            "code": "17109",
            "name": "BP Riverwood",
            "address": "189-191 Belmore Rd, RIVERWOOD NSW 2210",
            "location": {
                "latitude": -33.9556874,
                "longitude": 151.0511924
            },
            "state": "NSW"
        },
        {
            "brandid": "",
            "stationid": "",
            "brand": "Independent",
            "code": "17110",
            "name": "Baldwin Automotive",
            "address": "631 McGowen St, BROKEN HILL NSW 2880",
            "location": {
                "latitude": -31.9392219,
                "longitude": 141.4728025
            },
            "state": "NSW"
        },
        {
            "brandid": "",
            "stationid": "",
            "brand": "ASTRON",
            "code": "17112",
            "name": "Astron Lidsdale",
            "address": "1 Castlereagh Highway, LIDSDALE NSW 2790",
            "location": {
                "latitude": -33.396585,
                "longitude": 150.083725
            },
            "state": "NSW"
        },
        {
            "brandid": "",
            "stationid": "",
            "brand": "Mobil",
            "code": "17115",
            "name": "Mobil Coolamon",
            "address": "84 Cowabbie St, COOLAMON NSW 2701",
            "location": {
                "latitude": -34.81678,
                "longitude": 147.200138
            },
            "state": "NSW"
        },
        {
            "brandid": "",
            "stationid": "",
            "brand": "Mobil",
            "code": "17116",
            "name": "Mobil Narrandera",
            "address": "74 Whitton St, NARRANDERA NSW 2700",
            "location": {
                "latitude": -34.7413487,
                "longitude": 146.5557829
            },
            "state": "NSW"
        },
        {
            "brandid": "",
            "stationid": "",
            "brand": "Independent",
            "code": "17117",
            "name": "JONES PANELBEATING",
            "address": "72 Bolaro St, DUNEDOO NSW 2844",
            "location": {
                "latitude": -32.016523,
                "longitude": 149.3950546
            },
            "state": "NSW"
        },
        {
            "brandid": "",
            "stationid": "",
            "brand": "7-Eleven",
            "code": "17119",
            "name": "7-Eleven Camperdown",
            "address": "198 Parramatta Rd, CAMPERDOWN NSW 2050",
            "location": {
                "latitude": -33.886973,
                "longitude": 151.174134
            },
            "state": "NSW"
        },
        {
            "brandid": "",
            "stationid": "",
            "brand": "7-Eleven",
            "code": "17120",
            "name": "7-Eleven McGraths Hill",
            "address": "142 Windsor Rd, MCGRATHS HILL NSW 2756",
            "location": {
                "latitude": -33.6168487,
                "longitude": 150.8341844
            },
            "state": "NSW"
        },
        {
            "brandid": "",
            "stationid": "",
            "brand": "7-Eleven",
            "code": "17121",
            "name": "7-Eleven Paddington",
            "address": "Cnr Oxford St \u0026 Greens Rd, PADDINGTON NSW 2021",
            "location": {
                "latitude": -33.883242,
                "longitude": 151.220641
            },
            "state": "NSW"
        },
        {
            "brandid": "",
            "stationid": "",
            "brand": "7-Eleven",
            "code": "17122",
            "name": "7-Eleven Woolooware",
            "address": "192-198 The Kingsway, WOOLOOWARE NSW 2230",
            "location": {
                "latitude": -34.046318,
                "longitude": 151.133545
            },
            "state": "NSW"
        },
        {
            "brandid": "",
            "stationid": "",
            "brand": "7-Eleven",
            "code": "17123",
            "name": "7-Eleven Dapto",
            "address": "125-127 Princes Hwy, DAPTO NSW 2530",
            "location": {
                "latitude": -34.4987718,
                "longitude": 150.7914054
            },
            "state": "NSW"
        },
        {
            "brandid": "",
            "stationid": "",
            "brand": "7-Eleven",
            "code": "17127",
            "name": "7-Eleven Sans Souci",
            "address": "474-478 Rocky Point Rd, SANS SOUCI NSW 2219",
            "location": {
                "latitude": -33.9908775,
                "longitude": 151.1333852
            },
            "state": "NSW"
        },
        {
            "brandid": "",
            "stationid": "",
            "brand": "7-Eleven",
            "code": "17128",
            "name": "7-Eleven Prairewood",
            "address": "485-487 Smithfield Road, PRAIRIEWOOD NSW 2176",
            "location": {
                "latitude": -33.871082,
                "longitude": 150.902893
            },
            "state": "NSW"
        },
        {
            "brandid": "",
            "stationid": "",
            "brand": "7-Eleven",
            "code": "17131",
            "name": "7-Eleven Lithgow",
            "address": "1131 Great Western Hwy, LITHGOW NSW 2790",
            "location": {
                "latitude": -33.479907,
                "longitude": 150.13677
            },
            "state": "NSW"
        },
        {
            "brandid": "",
            "stationid": "",
            "brand": "7-Eleven",
            "code": "17129",
            "name": "7-Eleven Unanderra",
            "address": "41-43 Princes Hwy, UNANDERRA NSW 2526",
            "location": {
                "latitude": -34.4502906,
                "longitude": 150.8492676
            },
            "state": "NSW"
        },
        {
            "brandid": "",
            "stationid": "",
            "brand": "7-Eleven",
            "code": "17130",
            "name": "7-Eleven Kelso",
            "address": "64 Sydney Rd, KELSO NSW 2795",
            "location": {
                "latitude": -33.4184184,
                "longitude": 149.6062343
            },
            "state": "NSW"
        },
        {
            "brandid": "",
            "stationid": "",
            "brand": "7-Eleven",
            "code": "17132",
            "name": "7-Eleven Lurnea",
            "address": "124 Hoxton Park Rd, LURNEA NSW 2170",
            "location": {
                "latitude": -33.9271659,
                "longitude": 150.9026939
            },
            "state": "NSW"
        },
        {
            "brandid": "",
            "stationid": "",
            "brand": "7-Eleven",
            "code": "17136",
            "name": "7-Eleven St Helens Park",
            "address": "Corner Appin Road \u0026 Kellerman Drive St Helens Park, St Helens Park NSW 2560",
            "location": {
                "latitude": -34.102063,
                "longitude": 150.802239
            },
            "state": "NSW"
        },
        {
            "brandid": "",
            "stationid": "",
            "brand": "7-Eleven",
            "code": "17133",
            "name": "7-Eleven Edmondson Park",
            "address": "1962 Camden Valley Way, EDMONDSON PARK NSW 2174",
            "location": {
                "latitude": -33.955169,
                "longitude": 150.8571099
            },
            "state": "NSW"
        },
        {
            "brandid": "",
            "stationid": "",
            "brand": "7-Eleven",
            "code": "17134",
            "name": "7-Eleven Greenacre",
            "address": "301 Hume Hwy, GREENACRE NSW 2190",
            "location": {
                "latitude": -33.9052467,
                "longitude": 151.0418668
            },
            "state": "NSW"
        },
        {
            "brandid": "",
            "stationid": "",
            "brand": "7-Eleven",
            "code": "17137",
            "name": "7-Eleven Newport",
            "address": "307-311 Barrenjoey Rd, NEWPORT NSW 2106",
            "location": {
                "latitude": -33.6563398,
                "longitude": 151.3182504
            },
            "state": "NSW"
        },
        {
            "brandid": "",
            "stationid": "",
            "brand": "7-Eleven",
            "code": "17135",
            "name": "7-Eleven Charlestown",
            "address": "271-273 Charlestown Rd, CHARLESTOWN NSW 2290",
            "location": {
                "latitude": -32.9580218,
                "longitude": 151.689795
            },
            "state": "NSW"
        },
        {
            "brandid": "",
            "stationid": "",
            "brand": "7-Eleven",
            "code": "17138",
            "name": "7-Eleven Edgeworth",
            "address": "745 Main Rd, EDGEWORTH NSW 2285",
            "location": {
                "latitude": -32.9235802,
                "longitude": 151.6212248
            },
            "state": "NSW"
        },
        {
            "brandid": "",
            "stationid": "",
            "brand": "7-Eleven",
            "code": "17139",
            "name": "7-Eleven Baulkham Hills",
            "address": "217-219 Seven Hills Rd, BAULKHAM HILLS NSW 2153",
            "location": {
                "latitude": -33.7555124,
                "longitude": 150.963514
            },
            "state": "NSW"
        },
        {
            "brandid": "",
            "stationid": "",
            "brand": "7-Eleven",
            "code": "17140",
            "name": "7-Eleven Moorebank",
            "address": "98-102 Heathcote Rd, MOOREBANK NSW 2170",
            "location": {
                "latitude": -33.9380819,
                "longitude": 150.9395525
            },
            "state": "NSW"
        },
        {
            "brandid": "",
            "stationid": "",
            "brand": "7-Eleven",
            "code": "17142",
            "name": "7-Eleven Seven Hills",
            "address": "151 Prospect Hwy, SEVEN HILLS NSW 2147",
            "location": {
                "latitude": -33.7689361,
                "longitude": 150.9426804
            },
            "state": "NSW"
        },
        {
            "brandid": "",
            "stationid": "",
            "brand": "7-Eleven",
            "code": "17141",
            "name": "7-Eleven Glendale",
            "address": "397 Main Rd, CARDIFF NSW 2285",
            "location": {
                "latitude": -32.9339267,
                "longitude": 151.6562059
            },
            "state": "NSW"
        },
        {
            "brandid": "",
            "stationid": "",
            "brand": "7-Eleven",
            "code": "17143",
            "name": "7-Eleven Yagoona",
            "address": "519 Hume Hwy, YAGOONA NSW 2199",
            "location": {
                "latitude": -33.9076093,
                "longitude": 151.0207726
            },
            "state": "NSW"
        },
        {
            "brandid": "",
            "stationid": "",
            "brand": "7-Eleven",
            "code": "17144",
            "name": "7-Eleven Tweed Heads Sth",
            "address": "112 Minjungbal Dr, TWEED HEADS SOUTH NSW 2486",
            "location": {
                "latitude": -28.2072162,
                "longitude": 153.5454298
            },
            "state": "NSW"
        },
        {
            "brandid": "",
            "stationid": "",
            "brand": "7-Eleven",
            "code": "17145",
            "name": "7-Eleven Matraville",
            "address": "515 Bunnerong Rd, MATRAVILLE NSW 2036",
            "location": {
                "latitude": -33.9594352,
                "longitude": 151.231759
            },
            "state": "NSW"
        },
        {
            "brandid": "",
            "stationid": "",
            "brand": "7-Eleven",
            "code": "17146",
            "name": "7-Eleven Five Dock",
            "address": "231-235 Great North Road, Five Dock NSW 2046",
            "location": {
                "latitude": -33.86491,
                "longitude": 151.130081
            },
            "state": "NSW"
        },
        {
            "brandid": "",
            "stationid": "",
            "brand": "U-Go",
            "code": "17147",
            "name": "U-Go Baulkham Hills (Unmanned)",
            "address": "117 Seven Hills Rd, BAULKHAM HILLS NSW 2153",
            "location": {
                "latitude": -33.7613952,
                "longitude": 150.9750732
            },
            "state": "NSW"
        },
        {
            "brandid": "",
            "stationid": "",
            "brand": "7-Eleven",
            "code": "17148",
            "name": "7-Eleven Windsor",
            "address": "12 Hawkesbury Valley Way, WINDSOR NSW 2756",
            "location": {
                "latitude": -33.6118712,
                "longitude": 150.8122023
            },
            "state": "NSW"
        },
        {
            "brandid": "",
            "stationid": "",
            "brand": "7-Eleven",
            "code": "17149",
            "name": "7-Eleven RIVERSTONE",
            "address": "55 Garfield Rd E, RIVERSTONE NSW 2765",
            "location": {
                "latitude": -33.67797,
                "longitude": 150.86344
            },
            "state": "NSW"
        },
        {
            "brandid": "",
            "stationid": "",
            "brand": "Ampol Foodary",
            "code": "17151",
            "name": "Ampol Foodary Wetherill Park",
            "address": "Cnr The Horsley Dr \u0026 Mcilwraith St, WETHERILL PARK NSW 2164",
            "location": {
                "latitude": -33.852401,
                "longitude": 150.890413
            },